{
    "type": "FeatureCollection",
    "features": [
        {
            "type": "Feature",
            "geometry": {
                "type": "Point",
                "coordinates": [
                    2.349147,
                    48.879223
                ]
            },
            "properties": {
                "stationcode": null,
                "name": "Abbeville - Faubourg Poissonni\u00e8re",
                "capacity": 14
            }
        },
        {
            "type": "Feature",
            "geometry": {
                "type": "Point",
                "coordinates": [
                    2.3419239448664,
                    48.844730256132
                ]
            },
            "properties": {
                "stationcode": null,
                "name": "Gay Lussac - Saint-Jacques",
                "capacity": 24
            }
        },
        {
            "type": "Feature",
            "geometry": {
                "type": "Point",
                "coordinates": [
                    2.329337755887181,
                    48.84479928858768
                ]
            },
            "properties": {
                "stationcode": null,
                "name": "Notre-Dame-des-Champs - Stanislas",
                "capacity": 19
            }
        },
        {
            "type": "Feature",
            "geometry": {
                "type": "Point",
                "coordinates": [
                    2.359801238597928,
                    48.875034655883944
                ]
            },
            "properties": {
                "stationcode": null,
                "name": "R\u00e9collets - Square Villemin",
                "capacity": 17
            }
        },
        {
            "type": "Feature",
            "geometry": {
                "type": "Point",
                "coordinates": [
                    2.3328901827335,
                    48.886472466142
                ]
            },
            "properties": {
                "stationcode": null,
                "name": "Cimeti\u00e8re de Montmartre",
                "capacity": 43
            }
        },
        {
            "type": "Feature",
            "geometry": {
                "type": "Point",
                "coordinates": [
                    2.3145738624448158,
                    48.81111581390707
                ]
            },
            "properties": {
                "stationcode": null,
                "name": "Moli\u00e8re - R\u00e9publique",
                "capacity": 30
            }
        },
        {
            "type": "Feature",
            "geometry": {
                "type": "Point",
                "coordinates": [
                    2.371688821240712,
                    48.86921273836114
                ]
            },
            "properties": {
                "stationcode": null,
                "name": "Parmentier - Abel Rabaud",
                "capacity": 52
            }
        },
        {
            "type": "Feature",
            "geometry": {
                "type": "Point",
                "coordinates": [
                    2.3865414544355,
                    48.886393679436
                ]
            },
            "properties": {
                "stationcode": null,
                "name": "Hautpoul - Jean Jaur\u00e8s",
                "capacity": 32
            }
        },
        {
            "type": "Feature",
            "geometry": {
                "type": "Point",
                "coordinates": [
                    2.2881576418876652,
                    48.88873214926474
                ]
            },
            "properties": {
                "stationcode": null,
                "name": "Anatole France - Louise Michel",
                "capacity": 50
            }
        },
        {
            "type": "Feature",
            "geometry": {
                "type": "Point",
                "coordinates": [
                    2.4188338592648506,
                    48.89484799296163
                ]
            },
            "properties": {
                "stationcode": null,
                "name": "Ancien Canal - H\u00e9l\u00e8ne Brion",
                "capacity": 23
            }
        },
        {
            "type": "Feature",
            "geometry": {
                "type": "Point",
                "coordinates": [
                    2.473775,
                    48.8202823
                ]
            },
            "properties": {
                "stationcode": null,
                "name": "Place de Verdun",
                "capacity": 40
            }
        },
        {
            "type": "Feature",
            "geometry": {
                "type": "Point",
                "coordinates": [
                    2.341831654854,
                    48.848191348584
                ]
            },
            "properties": {
                "stationcode": null,
                "name": "Cujas - Saint-Michel",
                "capacity": 19
            }
        },
        {
            "type": "Feature",
            "geometry": {
                "type": "Point",
                "coordinates": [
                    2.2992860188665043,
                    48.878199928923124
                ]
            },
            "properties": {
                "stationcode": null,
                "name": "Courcelles - Place des Ternes",
                "capacity": 31
            }
        },
        {
            "type": "Feature",
            "geometry": {
                "type": "Point",
                "coordinates": [
                    2.1921751275658607,
                    48.812657470558754
                ]
            },
            "properties": {
                "stationcode": null,
                "name": "Parvis Robert Schuman - Roger Salengro",
                "capacity": 24
            }
        },
        {
            "type": "Feature",
            "geometry": {
                "type": "Point",
                "coordinates": [
                    2.348388757504776,
                    48.87397217237368
                ]
            },
            "properties": {
                "stationcode": null,
                "name": "Petites Ecuries - Faubourg Poissonni\u00e8re",
                "capacity": 17
            }
        },
        {
            "type": "Feature",
            "geometry": {
                "type": "Point",
                "coordinates": [
                    2.3092747998272,
                    48.82650293311
                ]
            },
            "properties": {
                "stationcode": null,
                "name": "Colonel Monteil - Brune",
                "capacity": 19
            }
        },
        {
            "type": "Feature",
            "geometry": {
                "type": "Point",
                "coordinates": [
                    2.4017545580863957,
                    48.90165072551549
                ]
            },
            "properties": {
                "stationcode": null,
                "name": "Toffier Decaux - Cartier Bresson",
                "capacity": 18
            }
        },
        {
            "type": "Feature",
            "geometry": {
                "type": "Point",
                "coordinates": [
                    2.2412404417991643,
                    48.831448892608314
                ]
            },
            "properties": {
                "stationcode": null,
                "name": "Hameau Fleuri - March\u00e9",
                "capacity": 22
            }
        },
        {
            "type": "Feature",
            "geometry": {
                "type": "Point",
                "coordinates": [
                    2.268483570651513,
                    48.85286124871689
                ]
            },
            "properties": {
                "stationcode": null,
                "name": "Mozart - Jasmin",
                "capacity": 62
            }
        },
        {
            "type": "Feature",
            "geometry": {
                "type": "Point",
                "coordinates": [
                    2.372705978671471,
                    48.86787670551736
                ]
            },
            "properties": {
                "stationcode": null,
                "name": "Parmentier - Fontaine au Roi",
                "capacity": 48
            }
        },
        {
            "type": "Feature",
            "geometry": {
                "type": "Point",
                "coordinates": [
                    2.342130728066,
                    48.850908146398
                ]
            },
            "properties": {
                "stationcode": null,
                "name": "Pierre Sarrazin - Saint-Michel",
                "capacity": 33
            }
        },
        {
            "type": "Feature",
            "geometry": {
                "type": "Point",
                "coordinates": [
                    2.4107042336225,
                    48.847238029966
                ]
            },
            "properties": {
                "stationcode": null,
                "name": "Cours de Vincennes - Davout",
                "capacity": 48
            }
        },
        {
            "type": "Feature",
            "geometry": {
                "type": "Point",
                "coordinates": [
                    2.368186041712761,
                    48.88126951579429
                ]
            },
            "properties": {
                "stationcode": null,
                "name": "Quai de Valmy",
                "capacity": 26
            }
        },
        {
            "type": "Feature",
            "geometry": {
                "type": "Point",
                "coordinates": [
                    2.295586926020252,
                    48.83767682233156
                ]
            },
            "properties": {
                "stationcode": null,
                "name": "Convention - Vaugirard",
                "capacity": 48
            }
        },
        {
            "type": "Feature",
            "geometry": {
                "type": "Point",
                "coordinates": [
                    2.4637357216879,
                    48.783021513972
                ]
            },
            "properties": {
                "stationcode": null,
                "name": "Lyc\u00e9e Saint Exup\u00e9ry - Juliette Savar",
                "capacity": 30
            }
        },
        {
            "type": "Feature",
            "geometry": {
                "type": "Point",
                "coordinates": [
                    2.3261967301369,
                    48.82764910241
                ]
            },
            "properties": {
                "stationcode": null,
                "name": "Jean Moulin - Place Victor et H\u00e9l\u00e8ne Basch",
                "capacity": 41
            }
        },
        {
            "type": "Feature",
            "geometry": {
                "type": "Point",
                "coordinates": [
                    2.2889783978462224,
                    48.93159430558871
                ]
            },
            "properties": {
                "stationcode": null,
                "name": "Lucien Lanternier - Le Luth",
                "capacity": 27
            }
        },
        {
            "type": "Feature",
            "geometry": {
                "type": "Point",
                "coordinates": [
                    2.3125657439232,
                    48.842726498317
                ]
            },
            "properties": {
                "stationcode": null,
                "name": "Place Jacques et Th\u00e9r\u00e8se Tr\u00e9fou\u00ebl",
                "capacity": 43
            }
        },
        {
            "type": "Feature",
            "geometry": {
                "type": "Point",
                "coordinates": [
                    2.2846536710858,
                    48.851201568304
                ]
            },
            "properties": {
                "stationcode": null,
                "name": "Square Bela Bartok",
                "capacity": 0
            }
        },
        {
            "type": "Feature",
            "geometry": {
                "type": "Point",
                "coordinates": [
                    2.3895226791501045,
                    48.790379518724265
                ]
            },
            "properties": {
                "stationcode": null,
                "name": "Place Saint-Just",
                "capacity": 22
            }
        },
        {
            "type": "Feature",
            "geometry": {
                "type": "Point",
                "coordinates": [
                    2.256898172199726,
                    48.947022436806705
                ]
            },
            "properties": {
                "stationcode": null,
                "name": "Gare d'Argenteuil",
                "capacity": 40
            }
        },
        {
            "type": "Feature",
            "geometry": {
                "type": "Point",
                "coordinates": [
                    2.375951372087002,
                    48.915096534520316
                ]
            },
            "properties": {
                "stationcode": null,
                "name": "Landy - Heurtault",
                "capacity": 30
            }
        },
        {
            "type": "Feature",
            "geometry": {
                "type": "Point",
                "coordinates": [
                    2.3397007964124366,
                    48.819897343156676
                ]
            },
            "properties": {
                "stationcode": null,
                "name": "Jourdan - Cit\u00e9 Universitaire",
                "capacity": 39
            }
        },
        {
            "type": "Feature",
            "geometry": {
                "type": "Point",
                "coordinates": [
                    2.3599335551262,
                    48.884008964514
                ]
            },
            "properties": {
                "stationcode": null,
                "name": "Louis Blanc - La Chapelle",
                "capacity": 21
            }
        },
        {
            "type": "Feature",
            "geometry": {
                "type": "Point",
                "coordinates": [
                    2.3638297989964485,
                    48.94563430946964
                ]
            },
            "properties": {
                "stationcode": null,
                "name": "Saint-Denis - Universit\u00e9",
                "capacity": 24
            }
        },
        {
            "type": "Feature",
            "geometry": {
                "type": "Point",
                "coordinates": [
                    2.2957482933998112,
                    48.83460221715206
                ]
            },
            "properties": {
                "stationcode": null,
                "name": "Olivier de Serres - Leriche",
                "capacity": 25
            }
        },
        {
            "type": "Feature",
            "geometry": {
                "type": "Point",
                "coordinates": [
                    2.3445211,
                    48.867458
                ]
            },
            "properties": {
                "stationcode": null,
                "name": "Cl\u00e9ry - Montmartre",
                "capacity": 44
            }
        },
        {
            "type": "Feature",
            "geometry": {
                "type": "Point",
                "coordinates": [
                    2.3461959511041637,
                    48.86450567259199
                ]
            },
            "properties": {
                "stationcode": null,
                "name": "Etienne Marcel - Montorgueil",
                "capacity": 28
            }
        },
        {
            "type": "Feature",
            "geometry": {
                "type": "Point",
                "coordinates": [
                    2.3077843710780144,
                    48.8236825874564
                ]
            },
            "properties": {
                "stationcode": null,
                "name": "Adolphe Pinard - Victor Hugo",
                "capacity": 52
            }
        },
        {
            "type": "Feature",
            "geometry": {
                "type": "Point",
                "coordinates": [
                    2.3294411972165,
                    48.835147319625
                ]
            },
            "properties": {
                "stationcode": null,
                "name": "Froidevaux - Boulard",
                "capacity": 35
            }
        },
        {
            "type": "Feature",
            "geometry": {
                "type": "Point",
                "coordinates": [
                    2.2089037319128613,
                    48.86265537999924
                ]
            },
            "properties": {
                "stationcode": null,
                "name": "\u00c9douard Vaillant - Place Jean Jaur\u00e8s",
                "capacity": 24
            }
        },
        {
            "type": "Feature",
            "geometry": {
                "type": "Point",
                "coordinates": [
                    2.2001516849313,
                    48.826262366227
                ]
            },
            "properties": {
                "stationcode": null,
                "name": "Gare de S\u00e8vres - Ville d'Avray",
                "capacity": 22
            }
        },
        {
            "type": "Feature",
            "geometry": {
                "type": "Point",
                "coordinates": [
                    2.2829206287861,
                    48.865804746474
                ]
            },
            "properties": {
                "stationcode": null,
                "name": "Belles Feuilles - Place de Mexico",
                "capacity": 23
            }
        },
        {
            "type": "Feature",
            "geometry": {
                "type": "Point",
                "coordinates": [
                    2.2600970417261,
                    48.923133952658
                ]
            },
            "properties": {
                "stationcode": null,
                "name": "Victor Hugo - Gare",
                "capacity": 22
            }
        },
        {
            "type": "Feature",
            "geometry": {
                "type": "Point",
                "coordinates": [
                    2.302526,
                    48.785205
                ]
            },
            "properties": {
                "stationcode": null,
                "name": "Les Blagis",
                "capacity": 27
            }
        },
        {
            "type": "Feature",
            "geometry": {
                "type": "Point",
                "coordinates": [
                    2.281828634440899,
                    48.7799259211605
                ]
            },
            "properties": {
                "stationcode": null,
                "name": "Gare de Robinson",
                "capacity": 30
            }
        },
        {
            "type": "Feature",
            "geometry": {
                "type": "Point",
                "coordinates": [
                    2.3248164693922,
                    48.878618556803
                ]
            },
            "properties": {
                "stationcode": null,
                "name": "Londres - Europe",
                "capacity": 27
            }
        },
        {
            "type": "Feature",
            "geometry": {
                "type": "Point",
                "coordinates": [
                    2.3930460959673,
                    48.875565910073
                ]
            },
            "properties": {
                "stationcode": null,
                "name": "Belleville -  Pr\u00e9 Saint-Gervais",
                "capacity": 21
            }
        },
        {
            "type": "Feature",
            "geometry": {
                "type": "Point",
                "coordinates": [
                    2.350204177200794,
                    48.8255961335041
                ]
            },
            "properties": {
                "stationcode": null,
                "name": "Bobillot - Tolbiac",
                "capacity": 33
            }
        },
        {
            "type": "Feature",
            "geometry": {
                "type": "Point",
                "coordinates": [
                    2.327060401439667,
                    48.81040517059777
                ]
            },
            "properties": {
                "stationcode": null,
                "name": "Place de la vache noire",
                "capacity": 25
            }
        },
        {
            "type": "Feature",
            "geometry": {
                "type": "Point",
                "coordinates": [
                    2.3002513,
                    48.8652359
                ]
            },
            "properties": {
                "stationcode": null,
                "name": "Marceau - Pr\u00e9sident Wilson",
                "capacity": 32
            }
        },
        {
            "type": "Feature",
            "geometry": {
                "type": "Point",
                "coordinates": [
                    2.32321947813034,
                    48.89213559044868
                ]
            },
            "properties": {
                "stationcode": null,
                "name": "Guy M\u00f4quet - Compoint",
                "capacity": 36
            }
        },
        {
            "type": "Feature",
            "geometry": {
                "type": "Point",
                "coordinates": [
                    2.412330328844772,
                    48.849266043601794
                ]
            },
            "properties": {
                "stationcode": null,
                "name": "Reynaldo Hahn - Lagny",
                "capacity": 19
            }
        },
        {
            "type": "Feature",
            "geometry": {
                "type": "Point",
                "coordinates": [
                    2.431421081436563,
                    48.83544491617421
                ]
            },
            "properties": {
                "stationcode": null,
                "name": "Bois de Vincennes - Polygone",
                "capacity": 51
            }
        },
        {
            "type": "Feature",
            "geometry": {
                "type": "Point",
                "coordinates": [
                    2.3412468419093,
                    48.860273568996
                ]
            },
            "properties": {
                "stationcode": null,
                "name": "Perrault - Place du Louvre",
                "capacity": 28
            }
        },
        {
            "type": "Feature",
            "geometry": {
                "type": "Point",
                "coordinates": [
                    2.3660597205162,
                    48.86446597201
                ]
            },
            "properties": {
                "stationcode": null,
                "name": "Temple - Jean-Pierre Timbaud",
                "capacity": 36
            }
        },
        {
            "type": "Feature",
            "geometry": {
                "type": "Point",
                "coordinates": [
                    2.3064726536317,
                    48.933548439566
                ]
            },
            "properties": {
                "stationcode": null,
                "name": "Gare RER - G\u00e9n\u00e9ral de Gaulle",
                "capacity": 41
            }
        },
        {
            "type": "Feature",
            "geometry": {
                "type": "Point",
                "coordinates": [
                    2.3209181427956,
                    48.827673823166
                ]
            },
            "properties": {
                "stationcode": null,
                "name": "Abb\u00e9 Carton - Plantes",
                "capacity": 25
            }
        },
        {
            "type": "Feature",
            "geometry": {
                "type": "Point",
                "coordinates": [
                    2.2909234046643,
                    48.788093281931
                ]
            },
            "properties": {
                "stationcode": null,
                "name": "Place Henri Dunant - Gare RER",
                "capacity": 31
            }
        },
        {
            "type": "Feature",
            "geometry": {
                "type": "Point",
                "coordinates": [
                    2.2909969,
                    48.7973062
                ]
            },
            "properties": {
                "stationcode": null,
                "name": "Parc des Pierrettes",
                "capacity": 23
            }
        },
        {
            "type": "Feature",
            "geometry": {
                "type": "Point",
                "coordinates": [
                    2.2833752789972,
                    48.798666226364
                ]
            },
            "properties": {
                "stationcode": null,
                "name": "Division Leclerc - Kl\u00e9ber",
                "capacity": 25
            }
        },
        {
            "type": "Feature",
            "geometry": {
                "type": "Point",
                "coordinates": [
                    2.327339,
                    48.877753
                ]
            },
            "properties": {
                "stationcode": null,
                "name": "Gare Saint-Lazare - Place de Budapest",
                "capacity": 44
            }
        },
        {
            "type": "Feature",
            "geometry": {
                "type": "Point",
                "coordinates": [
                    2.3654810339212,
                    48.866830968942
                ]
            },
            "properties": {
                "stationcode": null,
                "name": "Place de la R\u00e9publique - Voltaire",
                "capacity": 19
            }
        },
        {
            "type": "Feature",
            "geometry": {
                "type": "Point",
                "coordinates": [
                    2.3995766043663,
                    48.910423437526
                ]
            },
            "properties": {
                "stationcode": null,
                "name": "Jean Jaur\u00e8s - Ouvri\u00e8res Piv\u00e9reuses",
                "capacity": 22
            }
        },
        {
            "type": "Feature",
            "geometry": {
                "type": "Point",
                "coordinates": [
                    2.3044242337346,
                    48.853754486938
                ]
            },
            "properties": {
                "stationcode": null,
                "name": "Place Joffre - Fr\u00e9d\u00e9ric le Play",
                "capacity": 38
            }
        },
        {
            "type": "Feature",
            "geometry": {
                "type": "Point",
                "coordinates": [
                    2.3584905266762,
                    48.906442763495
                ]
            },
            "properties": {
                "stationcode": null,
                "name": "Proudhon - Pr\u00e9sident Wilson",
                "capacity": 30
            }
        },
        {
            "type": "Feature",
            "geometry": {
                "type": "Point",
                "coordinates": [
                    2.4543687905029,
                    48.802117531472
                ]
            },
            "properties": {
                "stationcode": null,
                "name": "Bleuets - Bordi\u00e8res",
                "capacity": 1
            }
        },
        {
            "type": "Feature",
            "geometry": {
                "type": "Point",
                "coordinates": [
                    2.323243509808,
                    48.870406028483
                ]
            },
            "properties": {
                "stationcode": null,
                "name": "Malesherbes - Place de la Madeleine",
                "capacity": 67
            }
        },
        {
            "type": "Feature",
            "geometry": {
                "type": "Point",
                "coordinates": [
                    2.2325500845909,
                    48.835583838706
                ]
            },
            "properties": {
                "stationcode": null,
                "name": "Silly - Galli\u00e9ni",
                "capacity": 25
            }
        },
        {
            "type": "Feature",
            "geometry": {
                "type": "Point",
                "coordinates": [
                    2.4609763908985,
                    48.779035118572
                ]
            },
            "properties": {
                "stationcode": null,
                "name": "Bas du Mont-Mesly",
                "capacity": 27
            }
        },
        {
            "type": "Feature",
            "geometry": {
                "type": "Point",
                "coordinates": [
                    2.4537451531298,
                    48.798922410229
                ]
            },
            "properties": {
                "stationcode": null,
                "name": "H\u00f4pital Mondor",
                "capacity": 28
            }
        },
        {
            "type": "Feature",
            "geometry": {
                "type": "Point",
                "coordinates": [
                    2.3459213599563,
                    48.870828911558
                ]
            },
            "properties": {
                "stationcode": null,
                "name": "Saint-Fiacre - Poissoni\u00e8re",
                "capacity": 35
            }
        },
        {
            "type": "Feature",
            "geometry": {
                "type": "Point",
                "coordinates": [
                    2.35908430069685,
                    48.78448485079149
                ]
            },
            "properties": {
                "stationcode": null,
                "name": "Youri Gagarine - Karl Marx",
                "capacity": 22
            }
        },
        {
            "type": "Feature",
            "geometry": {
                "type": "Point",
                "coordinates": [
                    2.3417982839439,
                    48.857058739111
                ]
            },
            "properties": {
                "stationcode": null,
                "name": "Quai de l'Horloge - Pont Neuf",
                "capacity": 17
            }
        },
        {
            "type": "Feature",
            "geometry": {
                "type": "Point",
                "coordinates": [
                    2.3703941702842717,
                    48.884492238407525
                ]
            },
            "properties": {
                "stationcode": null,
                "name": "Quai de la Seine",
                "capacity": 24
            }
        },
        {
            "type": "Feature",
            "geometry": {
                "type": "Point",
                "coordinates": [
                    2.3814103,
                    48.9155156
                ]
            },
            "properties": {
                "stationcode": null,
                "name": "Anatole France - President Roosevelt",
                "capacity": 29
            }
        },
        {
            "type": "Feature",
            "geometry": {
                "type": "Point",
                "coordinates": [
                    2.3611663654447,
                    48.814548697325
                ]
            },
            "properties": {
                "stationcode": null,
                "name": "Roger Salengro - Fontainebleau",
                "capacity": 25
            }
        },
        {
            "type": "Feature",
            "geometry": {
                "type": "Point",
                "coordinates": [
                    2.4451419711113,
                    48.847803063647
                ]
            },
            "properties": {
                "stationcode": null,
                "name": "Fontenay - Lib\u00e9ration",
                "capacity": 25
            }
        },
        {
            "type": "Feature",
            "geometry": {
                "type": "Point",
                "coordinates": [
                    2.271184623241425,
                    48.818144834008976
                ]
            },
            "properties": {
                "stationcode": null,
                "name": "Lucie Aubrac - Fort",
                "capacity": 30
            }
        },
        {
            "type": "Feature",
            "geometry": {
                "type": "Point",
                "coordinates": [
                    2.420119643211365,
                    48.881287375060616
                ]
            },
            "properties": {
                "stationcode": null,
                "name": "Square du Th\u00e9\u00e2tre du Garde-Chasse",
                "capacity": 50
            }
        },
        {
            "type": "Feature",
            "geometry": {
                "type": "Point",
                "coordinates": [
                    2.2460845112801,
                    48.838020154411
                ]
            },
            "properties": {
                "stationcode": null,
                "name": "Victor Hugo - Galli\u00e9ni",
                "capacity": 34
            }
        },
        {
            "type": "Feature",
            "geometry": {
                "type": "Point",
                "coordinates": [
                    2.4461565166711807,
                    48.877141208359035
                ]
            },
            "properties": {
                "stationcode": null,
                "name": "Chemin Vert - Fraternit\u00e9",
                "capacity": 20
            }
        },
        {
            "type": "Feature",
            "geometry": {
                "type": "Point",
                "coordinates": [
                    2.321148812770844,
                    48.79387269664978
                ]
            },
            "properties": {
                "stationcode": null,
                "name": "Aristide Briand - Gare de Bagneux",
                "capacity": 22
            }
        },
        {
            "type": "Feature",
            "geometry": {
                "type": "Point",
                "coordinates": [
                    2.3445770524322067,
                    48.83486054775774
                ]
            },
            "properties": {
                "stationcode": null,
                "name": "Arago - Glaci\u00e8re",
                "capacity": 27
            }
        },
        {
            "type": "Feature",
            "geometry": {
                "type": "Point",
                "coordinates": [
                    2.3785,
                    48.88879
                ]
            },
            "properties": {
                "stationcode": null,
                "name": "Place de l'\u00c9dit de Nantes",
                "capacity": 30
            }
        },
        {
            "type": "Feature",
            "geometry": {
                "type": "Point",
                "coordinates": [
                    2.3737595955229,
                    48.888013281448
                ]
            },
            "properties": {
                "stationcode": null,
                "name": "Flandre - Riquet",
                "capacity": 21
            }
        },
        {
            "type": "Feature",
            "geometry": {
                "type": "Point",
                "coordinates": [
                    2.3830059170722966,
                    48.90390751882016
                ]
            },
            "properties": {
                "stationcode": null,
                "name": "Bordier - F\u00e9lix Faure",
                "capacity": 48
            }
        },
        {
            "type": "Feature",
            "geometry": {
                "type": "Point",
                "coordinates": [
                    2.185428,
                    48.868807
                ]
            },
            "properties": {
                "stationcode": null,
                "name": "18 juin 1940 - Buzenval",
                "capacity": 25
            }
        },
        {
            "type": "Feature",
            "geometry": {
                "type": "Point",
                "coordinates": [
                    2.1724102640451,
                    48.838634069623
                ]
            },
            "properties": {
                "stationcode": null,
                "name": "Raymond Poincar\u00e9 - All\u00e9e de la Marche",
                "capacity": 23
            }
        },
        {
            "type": "Feature",
            "geometry": {
                "type": "Point",
                "coordinates": [
                    2.3989596023316,
                    48.870682633845
                ]
            },
            "properties": {
                "stationcode": null,
                "name": "M\u00e9nilmontant - Pelleport",
                "capacity": 19
            }
        },
        {
            "type": "Feature",
            "geometry": {
                "type": "Point",
                "coordinates": [
                    2.430793,
                    48.841486
                ]
            },
            "properties": {
                "stationcode": null,
                "name": "Vignerons - Minimes",
                "capacity": 29
            }
        },
        {
            "type": "Feature",
            "geometry": {
                "type": "Point",
                "coordinates": [
                    2.3644426837563515,
                    48.92540695835961
                ]
            },
            "properties": {
                "stationcode": null,
                "name": "Place du Cornillon - Stade de France",
                "capacity": 34
            }
        },
        {
            "type": "Feature",
            "geometry": {
                "type": "Point",
                "coordinates": [
                    2.4323049187660217,
                    48.85742876694898
                ]
            },
            "properties": {
                "stationcode": null,
                "name": "Paris - D\u00e9sir\u00e9 Pr\u00e9aux",
                "capacity": 49
            }
        },
        {
            "type": "Feature",
            "geometry": {
                "type": "Point",
                "coordinates": [
                    2.3995549,
                    48.8756045
                ]
            },
            "properties": {
                "stationcode": null,
                "name": "Belleville - T\u00e9l\u00e9graphe",
                "capacity": 41
            }
        },
        {
            "type": "Feature",
            "geometry": {
                "type": "Point",
                "coordinates": [
                    2.3628534749150276,
                    48.88960028134536
                ]
            },
            "properties": {
                "stationcode": null,
                "name": "Pajol - Riquet",
                "capacity": 47
            }
        },
        {
            "type": "Feature",
            "geometry": {
                "type": "Point",
                "coordinates": [
                    2.2744515,
                    48.8583666
                ]
            },
            "properties": {
                "stationcode": null,
                "name": "Fran\u00e7ois Ponsard - La Muette",
                "capacity": 23
            }
        },
        {
            "type": "Feature",
            "geometry": {
                "type": "Point",
                "coordinates": [
                    2.3933270573616032,
                    48.90271566255436
                ]
            },
            "properties": {
                "stationcode": null,
                "name": "Gabrielle Josserand - Edouard Vaillant",
                "capacity": 25
            }
        },
        {
            "type": "Feature",
            "geometry": {
                "type": "Point",
                "coordinates": [
                    2.2898658737540245,
                    48.8482070397636
                ]
            },
            "properties": {
                "stationcode": null,
                "name": "Th\u00e9\u00e2tre - Lourmel",
                "capacity": 53
            }
        },
        {
            "type": "Feature",
            "geometry": {
                "type": "Point",
                "coordinates": [
                    2.320263946784738,
                    48.84308531746595
                ]
            },
            "properties": {
                "stationcode": null,
                "name": "Maine - Antoine Bourdelle",
                "capacity": 17
            }
        },
        {
            "type": "Feature",
            "geometry": {
                "type": "Point",
                "coordinates": [
                    2.3381787144261,
                    48.889677905028
                ]
            },
            "properties": {
                "stationcode": null,
                "name": "Caulaincourt - Place Constantin Pecqueur",
                "capacity": 44
            }
        },
        {
            "type": "Feature",
            "geometry": {
                "type": "Point",
                "coordinates": [
                    2.3670325062844,
                    48.862654215631
                ]
            },
            "properties": {
                "stationcode": null,
                "name": "Place Pasdeloup",
                "capacity": 21
            }
        },
        {
            "type": "Feature",
            "geometry": {
                "type": "Point",
                "coordinates": [
                    2.3567550292319,
                    48.831481874467
                ]
            },
            "properties": {
                "stationcode": null,
                "name": "Place d'Italie - Vincent Auriol",
                "capacity": 40
            }
        },
        {
            "type": "Feature",
            "geometry": {
                "type": "Point",
                "coordinates": [
                    2.2780618071556096,
                    48.840639944296655
                ]
            },
            "properties": {
                "stationcode": null,
                "name": "Parc Andr\u00e9 Citro\u00ebn",
                "capacity": 65
            }
        },
        {
            "type": "Feature",
            "geometry": {
                "type": "Point",
                "coordinates": [
                    2.2946908324956894,
                    48.90390619651018
                ]
            },
            "properties": {
                "stationcode": null,
                "name": "Gustave Eiffel - Parc des Impressionnistes",
                "capacity": 30
            }
        },
        {
            "type": "Feature",
            "geometry": {
                "type": "Point",
                "coordinates": [
                    2.3678014799952507,
                    48.82463749337136
                ]
            },
            "properties": {
                "stationcode": null,
                "name": "Nationale - Marcel Duchamp",
                "capacity": 23
            }
        },
        {
            "type": "Feature",
            "geometry": {
                "type": "Point",
                "coordinates": [
                    2.3723404482007027,
                    48.83637852318147
                ]
            },
            "properties": {
                "stationcode": null,
                "name": "Fernand Braudel - Vincent Auriol",
                "capacity": 36
            }
        },
        {
            "type": "Feature",
            "geometry": {
                "type": "Point",
                "coordinates": [
                    2.3920395970345,
                    48.822556366667
                ]
            },
            "properties": {
                "stationcode": null,
                "name": "Quai Marcel Boyer - Victor Hugo",
                "capacity": 29
            }
        },
        {
            "type": "Feature",
            "geometry": {
                "type": "Point",
                "coordinates": [
                    2.3407534480528,
                    48.873267137583
                ]
            },
            "properties": {
                "stationcode": null,
                "name": "Mairie du 9\u00e8me",
                "capacity": 24
            }
        },
        {
            "type": "Feature",
            "geometry": {
                "type": "Point",
                "coordinates": [
                    2.3738072379951,
                    48.874405666217
                ]
            },
            "properties": {
                "stationcode": null,
                "name": "Sambre et Meuse - Villette",
                "capacity": 25
            }
        },
        {
            "type": "Feature",
            "geometry": {
                "type": "Point",
                "coordinates": [
                    2.4562818557024,
                    48.87626381919953
                ]
            },
            "properties": {
                "stationcode": null,
                "name": "Demi-Lune - Aristide Briand",
                "capacity": 20
            }
        },
        {
            "type": "Feature",
            "geometry": {
                "type": "Point",
                "coordinates": [
                    2.435784414410591,
                    48.864273423741956
                ]
            },
            "properties": {
                "stationcode": null,
                "name": "R\u00e9sistance - Hoche",
                "capacity": 29
            }
        },
        {
            "type": "Feature",
            "geometry": {
                "type": "Point",
                "coordinates": [
                    2.3521957173944,
                    48.852915956209
                ]
            },
            "properties": {
                "stationcode": null,
                "name": "Quai aux Fleurs - Pont Saint-Louis",
                "capacity": 21
            }
        },
        {
            "type": "Feature",
            "geometry": {
                "type": "Point",
                "coordinates": [
                    2.369126,
                    48.829575
                ]
            },
            "properties": {
                "stationcode": null,
                "name": "Place Jeanne d'Arc",
                "capacity": 36
            }
        },
        {
            "type": "Feature",
            "geometry": {
                "type": "Point",
                "coordinates": [
                    2.3476678133010864,
                    48.89374453351521
                ]
            },
            "properties": {
                "stationcode": null,
                "name": "Joseph Dijon - Ornano",
                "capacity": 37
            }
        },
        {
            "type": "Feature",
            "geometry": {
                "type": "Point",
                "coordinates": [
                    2.326347,
                    48.869789
                ]
            },
            "properties": {
                "stationcode": null,
                "name": "Godot de Mauroy - Madeleine",
                "capacity": 22
            }
        },
        {
            "type": "Feature",
            "geometry": {
                "type": "Point",
                "coordinates": [
                    2.3254923149943,
                    48.83254578123
                ]
            },
            "properties": {
                "stationcode": null,
                "name": "Mairie du 14\u00e8me",
                "capacity": 32
            }
        },
        {
            "type": "Feature",
            "geometry": {
                "type": "Point",
                "coordinates": [
                    2.3232302069664006,
                    48.83005755305626
                ]
            },
            "properties": {
                "stationcode": null,
                "name": "Plantes - Moulin Vert",
                "capacity": 45
            }
        },
        {
            "type": "Feature",
            "geometry": {
                "type": "Point",
                "coordinates": [
                    2.324595451355,
                    48.841160928966
                ]
            },
            "properties": {
                "stationcode": null,
                "name": "Edgar Quinet - Gait\u00e9",
                "capacity": 27
            }
        },
        {
            "type": "Feature",
            "geometry": {
                "type": "Point",
                "coordinates": [
                    2.31458459136273,
                    48.919898633572764
                ]
            },
            "properties": {
                "stationcode": null,
                "name": "Gare RER les Gr\u00e9sillons",
                "capacity": 22
            }
        },
        {
            "type": "Feature",
            "geometry": {
                "type": "Point",
                "coordinates": [
                    2.4846760556101803,
                    48.820029010376956
                ]
            },
            "properties": {
                "stationcode": null,
                "name": "Roger Salengro - G\u00e9n\u00e9ral de Gaulle",
                "capacity": 27
            }
        },
        {
            "type": "Feature",
            "geometry": {
                "type": "Point",
                "coordinates": [
                    2.3997623859813,
                    48.848364667777
                ]
            },
            "properties": {
                "stationcode": null,
                "name": "Place de la Nation - Charonne",
                "capacity": 36
            }
        },
        {
            "type": "Feature",
            "geometry": {
                "type": "Point",
                "coordinates": [
                    2.2815125225299,
                    48.873568706869
                ]
            },
            "properties": {
                "stationcode": null,
                "name": "Pergol\u00e8se - Marbeau",
                "capacity": 27
            }
        },
        {
            "type": "Feature",
            "geometry": {
                "type": "Point",
                "coordinates": [
                    2.348572461702221,
                    48.83548071896613
                ]
            },
            "properties": {
                "stationcode": null,
                "name": "Cordeli\u00e8res - Arago",
                "capacity": 46
            }
        },
        {
            "type": "Feature",
            "geometry": {
                "type": "Point",
                "coordinates": [
                    2.308876,
                    48.837884
                ]
            },
            "properties": {
                "stationcode": null,
                "name": "Bargue -  Dutot",
                "capacity": 21
            }
        },
        {
            "type": "Feature",
            "geometry": {
                "type": "Point",
                "coordinates": [
                    2.3564198613167,
                    48.865574047531
                ]
            },
            "properties": {
                "stationcode": null,
                "name": "Turbigo - R\u00e9aumur",
                "capacity": 31
            }
        },
        {
            "type": "Feature",
            "geometry": {
                "type": "Point",
                "coordinates": [
                    2.2314262390137,
                    48.830121559055
                ]
            },
            "properties": {
                "stationcode": null,
                "name": "S\u00e8vres - G\u00e9n\u00e9ral Leclerc",
                "capacity": 30
            }
        },
        {
            "type": "Feature",
            "geometry": {
                "type": "Point",
                "coordinates": [
                    2.362354410392119,
                    48.83252708397293
                ]
            },
            "properties": {
                "stationcode": null,
                "name": "Nationale - Vincent Auriol",
                "capacity": 33
            }
        },
        {
            "type": "Feature",
            "geometry": {
                "type": "Point",
                "coordinates": [
                    2.31055945158,
                    48.905303858642
                ]
            },
            "properties": {
                "stationcode": null,
                "name": "Parc Roger Salengro",
                "capacity": 35
            }
        },
        {
            "type": "Feature",
            "geometry": {
                "type": "Point",
                "coordinates": [
                    2.2525164484978,
                    48.838662757066
                ]
            },
            "properties": {
                "stationcode": null,
                "name": "Porte de Saint Cloud - Parc des Princes",
                "capacity": 32
            }
        },
        {
            "type": "Feature",
            "geometry": {
                "type": "Point",
                "coordinates": [
                    2.3125872006816,
                    48.894222687781
                ]
            },
            "properties": {
                "stationcode": null,
                "name": "Berthier - Porte de Clichy",
                "capacity": 24
            }
        },
        {
            "type": "Feature",
            "geometry": {
                "type": "Point",
                "coordinates": [
                    2.3297942217634,
                    48.842738478258
                ]
            },
            "properties": {
                "stationcode": null,
                "name": "Br\u00e9a - Raspail",
                "capacity": 24
            }
        },
        {
            "type": "Feature",
            "geometry": {
                "type": "Point",
                "coordinates": [
                    2.3172724,
                    48.9018492
                ]
            },
            "properties": {
                "stationcode": null,
                "name": "Belfort - Victor Hugo",
                "capacity": 24
            }
        },
        {
            "type": "Feature",
            "geometry": {
                "type": "Point",
                "coordinates": [
                    2.3508992046117783,
                    48.93828169931872
                ]
            },
            "properties": {
                "stationcode": null,
                "name": "Jules Guesdes - Carnot",
                "capacity": 16
            }
        },
        {
            "type": "Feature",
            "geometry": {
                "type": "Point",
                "coordinates": [
                    2.330665,
                    48.914938
                ]
            },
            "properties": {
                "stationcode": null,
                "name": "Clef des Champs - Albert Dhalenne",
                "capacity": 28
            }
        },
        {
            "type": "Feature",
            "geometry": {
                "type": "Point",
                "coordinates": [
                    2.3343613743782,
                    48.830512876709
                ]
            },
            "properties": {
                "stationcode": null,
                "name": "Tombe Issoire - Ren\u00e9 Coty",
                "capacity": 36
            }
        },
        {
            "type": "Feature",
            "geometry": {
                "type": "Point",
                "coordinates": [
                    2.265253821160005,
                    48.84842761367387
                ]
            },
            "properties": {
                "stationcode": null,
                "name": "March\u00e9 d'Auteuil",
                "capacity": 32
            }
        },
        {
            "type": "Feature",
            "geometry": {
                "type": "Point",
                "coordinates": [
                    2.3238347490884,
                    48.883103904582
                ]
            },
            "properties": {
                "stationcode": null,
                "name": "Batignolles - Abel Truchet",
                "capacity": 28
            }
        },
        {
            "type": "Feature",
            "geometry": {
                "type": "Point",
                "coordinates": [
                    2.3609894170229,
                    48.839504424583
                ]
            },
            "properties": {
                "stationcode": null,
                "name": "Saint-Marcel - H\u00f4pital",
                "capacity": 21
            }
        },
        {
            "type": "Feature",
            "geometry": {
                "type": "Point",
                "coordinates": [
                    2.4039056897163396,
                    48.871244610447015
                ]
            },
            "properties": {
                "stationcode": null,
                "name": "Gambetta - Saint Fargeau",
                "capacity": 24
            }
        },
        {
            "type": "Feature",
            "geometry": {
                "type": "Point",
                "coordinates": [
                    2.3159965061736,
                    48.802056061754
                ]
            },
            "properties": {
                "stationcode": null,
                "name": "Verdun - Henri Barbusse",
                "capacity": 24
            }
        },
        {
            "type": "Feature",
            "geometry": {
                "type": "Point",
                "coordinates": [
                    2.4331868384644,
                    48.882877330093
                ]
            },
            "properties": {
                "stationcode": null,
                "name": "Saint-Germain - Verdun",
                "capacity": 30
            }
        },
        {
            "type": "Feature",
            "geometry": {
                "type": "Point",
                "coordinates": [
                    2.3790882155299187,
                    48.84395729494058
                ]
            },
            "properties": {
                "stationcode": null,
                "name": "Gare de Lyon - Roland Barthes",
                "capacity": 68
            }
        },
        {
            "type": "Feature",
            "geometry": {
                "type": "Point",
                "coordinates": [
                    2.4581568985227,
                    48.896280181078
                ]
            },
            "properties": {
                "stationcode": null,
                "name": "Gare RER",
                "capacity": 30
            }
        },
        {
            "type": "Feature",
            "geometry": {
                "type": "Point",
                "coordinates": [
                    2.3973043,
                    48.8488408
                ]
            },
            "properties": {
                "stationcode": null,
                "name": "Place de la Nation - Taillebourg",
                "capacity": 47
            }
        },
        {
            "type": "Feature",
            "geometry": {
                "type": "Point",
                "coordinates": [
                    2.295599598447,
                    48.860897797941
                ]
            },
            "properties": {
                "stationcode": null,
                "name": "Bourdonnais - Tour Eiffel",
                "capacity": 60
            }
        },
        {
            "type": "Feature",
            "geometry": {
                "type": "Point",
                "coordinates": [
                    2.2716060653329,
                    48.84021670922
                ]
            },
            "properties": {
                "stationcode": null,
                "name": "Place du Moulin de Javel",
                "capacity": 45
            }
        },
        {
            "type": "Feature",
            "geometry": {
                "type": "Point",
                "coordinates": [
                    2.3760157451034,
                    48.8350268238
                ]
            },
            "properties": {
                "stationcode": null,
                "name": "BNF - Biblioth\u00e8que Nationale de France",
                "capacity": 42
            }
        },
        {
            "type": "Feature",
            "geometry": {
                "type": "Point",
                "coordinates": [
                    2.3612322,
                    48.8550222
                ]
            },
            "properties": {
                "stationcode": null,
                "name": "Saint-Antoine S\u00e9vign\u00e9",
                "capacity": 26
            }
        },
        {
            "type": "Feature",
            "geometry": {
                "type": "Point",
                "coordinates": [
                    2.299380004405976,
                    48.83310149953933
                ]
            },
            "properties": {
                "stationcode": null,
                "name": "Morillons - Dantzig",
                "capacity": 52
            }
        },
        {
            "type": "Feature",
            "geometry": {
                "type": "Point",
                "coordinates": [
                    2.270506024360657,
                    48.83823094269141
                ]
            },
            "properties": {
                "stationcode": null,
                "name": "G\u00e9n\u00e9ral Martial Valin - Pont du Garigliano",
                "capacity": 16
            }
        },
        {
            "type": "Feature",
            "geometry": {
                "type": "Point",
                "coordinates": [
                    2.3308449949028507,
                    48.88320784122797
                ]
            },
            "properties": {
                "stationcode": null,
                "name": "Douai - Bruxelles",
                "capacity": 27
            }
        },
        {
            "type": "Feature",
            "geometry": {
                "type": "Point",
                "coordinates": [
                    2.268122527474,
                    48.827228120536
                ]
            },
            "properties": {
                "stationcode": null,
                "name": "Charlot - Stade Gabriel Voisin",
                "capacity": 31
            }
        },
        {
            "type": "Feature",
            "geometry": {
                "type": "Point",
                "coordinates": [
                    2.3215785772007,
                    48.821466904768
                ]
            },
            "properties": {
                "stationcode": null,
                "name": "Cimeti\u00e8re de Montrouge",
                "capacity": 58
            }
        },
        {
            "type": "Feature",
            "geometry": {
                "type": "Point",
                "coordinates": [
                    2.4025777,
                    48.790114
                ]
            },
            "properties": {
                "stationcode": null,
                "name": "Gabriel P\u00e9ri - Danielle Casanova",
                "capacity": 20
            }
        },
        {
            "type": "Feature",
            "geometry": {
                "type": "Point",
                "coordinates": [
                    2.3693370749669,
                    48.865804276686
                ]
            },
            "properties": {
                "stationcode": null,
                "name": "Richard Lenoir - Jean-Pierre Timbaud",
                "capacity": 36
            }
        },
        {
            "type": "Feature",
            "geometry": {
                "type": "Point",
                "coordinates": [
                    2.2763770446181297,
                    48.87991924860035
                ]
            },
            "properties": {
                "stationcode": null,
                "name": "Charles de Gaulle - Sablonville",
                "capacity": 26
            }
        },
        {
            "type": "Feature",
            "geometry": {
                "type": "Point",
                "coordinates": [
                    2.296709530055523,
                    48.85147910413369
                ]
            },
            "properties": {
                "stationcode": null,
                "name": "Dupleix - du Guesclin",
                "capacity": 47
            }
        },
        {
            "type": "Feature",
            "geometry": {
                "type": "Point",
                "coordinates": [
                    2.4161778017878532,
                    48.864459134684644
                ]
            },
            "properties": {
                "stationcode": null,
                "name": "Champeaux - Gallieni",
                "capacity": 50
            }
        },
        {
            "type": "Feature",
            "geometry": {
                "type": "Point",
                "coordinates": [
                    2.3842214,
                    48.8703459
                ]
            },
            "properties": {
                "stationcode": null,
                "name": "Parc de Belleville - Julien Lacroix",
                "capacity": 26
            }
        },
        {
            "type": "Feature",
            "geometry": {
                "type": "Point",
                "coordinates": [
                    2.31648076325655,
                    48.82890454823947
                ]
            },
            "properties": {
                "stationcode": null,
                "name": "Jonquoy - Didot",
                "capacity": 30
            }
        },
        {
            "type": "Feature",
            "geometry": {
                "type": "Point",
                "coordinates": [
                    2.3372015478451,
                    48.871815737396
                ]
            },
            "properties": {
                "stationcode": null,
                "name": "Laffitte - Italiens",
                "capacity": 33
            }
        },
        {
            "type": "Feature",
            "geometry": {
                "type": "Point",
                "coordinates": [
                    2.2373420120857195,
                    48.848280403628806
                ]
            },
            "properties": {
                "stationcode": null,
                "name": "Transvaal - Charles de Gaulle",
                "capacity": 27
            }
        },
        {
            "type": "Feature",
            "geometry": {
                "type": "Point",
                "coordinates": [
                    2.3237934708595,
                    48.858297001218
                ]
            },
            "properties": {
                "stationcode": null,
                "name": "Villersexel - Saint-Germain",
                "capacity": 16
            }
        },
        {
            "type": "Feature",
            "geometry": {
                "type": "Point",
                "coordinates": [
                    2.2842371277102,
                    48.878021154637
                ]
            },
            "properties": {
                "stationcode": null,
                "name": "Porte Maillot - Perreire",
                "capacity": 51
            }
        },
        {
            "type": "Feature",
            "geometry": {
                "type": "Point",
                "coordinates": [
                    2.355954498052597,
                    48.93261499331498
                ]
            },
            "properties": {
                "stationcode": null,
                "name": "Franciade - Gabriel P\u00e9ri",
                "capacity": 26
            }
        },
        {
            "type": "Feature",
            "geometry": {
                "type": "Point",
                "coordinates": [
                    2.2984680533409123,
                    48.89679827481989
                ]
            },
            "properties": {
                "stationcode": null,
                "name": "Gare de Clichy-Levallois",
                "capacity": 26
            }
        },
        {
            "type": "Feature",
            "geometry": {
                "type": "Point",
                "coordinates": [
                    2.4030599377642674,
                    48.88179064200294
                ]
            },
            "properties": {
                "stationcode": null,
                "name": "Alexander Fleming - Belv\u00e9d\u00e8re",
                "capacity": 31
            }
        },
        {
            "type": "Feature",
            "geometry": {
                "type": "Point",
                "coordinates": [
                    2.3396701365709,
                    48.877851443503
                ]
            },
            "properties": {
                "stationcode": null,
                "name": "Choron - Martyrs",
                "capacity": 17
            }
        },
        {
            "type": "Feature",
            "geometry": {
                "type": "Point",
                "coordinates": [
                    2.29627937078476,
                    48.898965361341254
                ]
            },
            "properties": {
                "stationcode": null,
                "name": "Neuilly - Petit",
                "capacity": 16
            }
        },
        {
            "type": "Feature",
            "geometry": {
                "type": "Point",
                "coordinates": [
                    2.336266523912805,
                    48.893400392981874
                ]
            },
            "properties": {
                "stationcode": null,
                "name": "Damr\u00e9mont - Ordener",
                "capacity": 30
            }
        },
        {
            "type": "Feature",
            "geometry": {
                "type": "Point",
                "coordinates": [
                    2.319852970540523,
                    48.88216401466375
                ]
            },
            "properties": {
                "stationcode": null,
                "name": "Batignolles - Beudant",
                "capacity": 44
            }
        },
        {
            "type": "Feature",
            "geometry": {
                "type": "Point",
                "coordinates": [
                    2.396093,
                    48.854176
                ]
            },
            "properties": {
                "stationcode": null,
                "name": "Charonne - Bureau",
                "capacity": 47
            }
        },
        {
            "type": "Feature",
            "geometry": {
                "type": "Point",
                "coordinates": [
                    2.3352625966072,
                    48.8733298892
                ]
            },
            "properties": {
                "stationcode": null,
                "name": "Taitbout - La Fayette",
                "capacity": 35
            }
        },
        {
            "type": "Feature",
            "geometry": {
                "type": "Point",
                "coordinates": [
                    2.381317801773548,
                    48.78266870733145
                ]
            },
            "properties": {
                "stationcode": null,
                "name": "Lebrun - Colonel Fabien",
                "capacity": 27
            }
        },
        {
            "type": "Feature",
            "geometry": {
                "type": "Point",
                "coordinates": [
                    2.318264,
                    48.877932
                ]
            },
            "properties": {
                "stationcode": null,
                "name": "Mairie du 8\u00e8me",
                "capacity": 14
            }
        },
        {
            "type": "Feature",
            "geometry": {
                "type": "Point",
                "coordinates": [
                    2.4082902455152104,
                    48.88433053604843
                ]
            },
            "properties": {
                "stationcode": null,
                "name": "Jean Jaur\u00e8s - Jules Jacquemin",
                "capacity": 24
            }
        },
        {
            "type": "Feature",
            "geometry": {
                "type": "Point",
                "coordinates": [
                    2.2687188170157406,
                    48.86302317841182
                ]
            },
            "properties": {
                "stationcode": null,
                "name": "Porte de la Muette",
                "capacity": 36
            }
        },
        {
            "type": "Feature",
            "geometry": {
                "type": "Point",
                "coordinates": [
                    2.3225811123848,
                    48.843827994315
                ]
            },
            "properties": {
                "stationcode": null,
                "name": "Gare Montparnasse - Arriv\u00e9e",
                "capacity": 43
            }
        },
        {
            "type": "Feature",
            "geometry": {
                "type": "Point",
                "coordinates": [
                    2.372252832879,
                    48.871746849303
                ]
            },
            "properties": {
                "stationcode": null,
                "name": "Buisson Saint-Louis - Saint-Maur",
                "capacity": 19
            }
        },
        {
            "type": "Feature",
            "geometry": {
                "type": "Point",
                "coordinates": [
                    2.3376645147800446,
                    48.84342376221923
                ]
            },
            "properties": {
                "stationcode": null,
                "name": "Herschel - Observatoire",
                "capacity": 37
            }
        },
        {
            "type": "Feature",
            "geometry": {
                "type": "Point",
                "coordinates": [
                    2.4218603968620305,
                    48.84922568052601
                ]
            },
            "properties": {
                "stationcode": null,
                "name": "Lagny - Auguste Blanqui",
                "capacity": 27
            }
        },
        {
            "type": "Feature",
            "geometry": {
                "type": "Point",
                "coordinates": [
                    2.3649600148200993,
                    48.86210505412563
                ]
            },
            "properties": {
                "stationcode": null,
                "name": "Fille du Calvaire - Turenne",
                "capacity": 29
            }
        },
        {
            "type": "Feature",
            "geometry": {
                "type": "Point",
                "coordinates": [
                    2.338118505144376,
                    48.87514373494672
                ]
            },
            "properties": {
                "stationcode": null,
                "name": "Victoire - Laffitte",
                "capacity": 20
            }
        },
        {
            "type": "Feature",
            "geometry": {
                "type": "Point",
                "coordinates": [
                    2.33409583568573,
                    48.86364636851945
                ]
            },
            "properties": {
                "stationcode": null,
                "name": "Rivoli - Mus\u00e9e du Louvre",
                "capacity": 24
            }
        },
        {
            "type": "Feature",
            "geometry": {
                "type": "Point",
                "coordinates": [
                    2.3647149920992,
                    48.858158956779
                ]
            },
            "properties": {
                "stationcode": null,
                "name": "Saint-Gilles - Turenne",
                "capacity": 18
            }
        },
        {
            "type": "Feature",
            "geometry": {
                "type": "Point",
                "coordinates": [
                    2.3561057075858,
                    48.884178287286
                ]
            },
            "properties": {
                "stationcode": null,
                "name": "Gare du Nord - La Chapelle",
                "capacity": 18
            }
        },
        {
            "type": "Feature",
            "geometry": {
                "type": "Point",
                "coordinates": [
                    2.3436167797955,
                    48.936093926526
                ]
            },
            "properties": {
                "stationcode": null,
                "name": "Port - Confluence",
                "capacity": 26
            }
        },
        {
            "type": "Feature",
            "geometry": {
                "type": "Point",
                "coordinates": [
                    2.2731140430551027,
                    48.793824988636516
                ]
            },
            "properties": {
                "stationcode": null,
                "name": "Place de la Division Leclerc",
                "capacity": 35
            }
        },
        {
            "type": "Feature",
            "geometry": {
                "type": "Point",
                "coordinates": [
                    2.383259721100331,
                    48.815783497876815
                ]
            },
            "properties": {
                "stationcode": null,
                "name": "Danielle Casanova - Ledru-Rollin",
                "capacity": 28
            }
        },
        {
            "type": "Feature",
            "geometry": {
                "type": "Point",
                "coordinates": [
                    2.342529706656933,
                    48.8899944409612
                ]
            },
            "properties": {
                "stationcode": null,
                "name": "Francoeur - Caulaincourt",
                "capacity": 34
            }
        },
        {
            "type": "Feature",
            "geometry": {
                "type": "Point",
                "coordinates": [
                    2.4061721563339,
                    48.847796779935
                ]
            },
            "properties": {
                "stationcode": null,
                "name": "Pyr\u00e9n\u00e9es - Cours de Vincennes",
                "capacity": 21
            }
        },
        {
            "type": "Feature",
            "geometry": {
                "type": "Point",
                "coordinates": [
                    2.4398955702781677,
                    48.84827609706963
                ]
            },
            "properties": {
                "stationcode": null,
                "name": "H\u00f4tel de Ville de Vincennes",
                "capacity": 27
            }
        },
        {
            "type": "Feature",
            "geometry": {
                "type": "Point",
                "coordinates": [
                    2.3076123744249344,
                    48.8176962416867
                ]
            },
            "properties": {
                "stationcode": null,
                "name": "Pierre Brossolette - 12 F\u00e9vrier 1934",
                "capacity": 25
            }
        },
        {
            "type": "Feature",
            "geometry": {
                "type": "Point",
                "coordinates": [
                    2.3498166,
                    48.8953643
                ]
            },
            "properties": {
                "stationcode": null,
                "name": "Championnet.",
                "capacity": 22
            }
        },
        {
            "type": "Feature",
            "geometry": {
                "type": "Point",
                "coordinates": [
                    2.3729460884673,
                    48.894104140316
                ]
            },
            "properties": {
                "stationcode": null,
                "name": "Crim\u00e9e - Ourcq",
                "capacity": 56
            }
        },
        {
            "type": "Feature",
            "geometry": {
                "type": "Point",
                "coordinates": [
                    2.3707106709480286,
                    48.812822398263286
                ]
            },
            "properties": {
                "stationcode": null,
                "name": "Verdun - Pierre et Marie Curie",
                "capacity": 26
            }
        },
        {
            "type": "Feature",
            "geometry": {
                "type": "Point",
                "coordinates": [
                    2.2187778,
                    48.8702539
                ]
            },
            "properties": {
                "stationcode": null,
                "name": "Fontaine du Tertre - Calvaire",
                "capacity": 24
            }
        },
        {
            "type": "Feature",
            "geometry": {
                "type": "Point",
                "coordinates": [
                    2.2292812,
                    48.8324305
                ]
            },
            "properties": {
                "stationcode": null,
                "name": "S\u00e8vres - Mar\u00e9chal Juin",
                "capacity": 18
            }
        },
        {
            "type": "Feature",
            "geometry": {
                "type": "Point",
                "coordinates": [
                    2.3549050362061,
                    48.781109786782
                ]
            },
            "properties": {
                "stationcode": null,
                "name": "Epi d'Or - Chevilly",
                "capacity": 20
            }
        },
        {
            "type": "Feature",
            "geometry": {
                "type": "Point",
                "coordinates": [
                    2.192077,
                    48.858446
                ]
            },
            "properties": {
                "stationcode": null,
                "name": "Mar\u00e9chal Leclerc de Hauteclocque - March\u00e9 Buzenval",
                "capacity": 30
            }
        },
        {
            "type": "Feature",
            "geometry": {
                "type": "Point",
                "coordinates": [
                    2.369220033288,
                    48.851355779579
                ]
            },
            "properties": {
                "stationcode": null,
                "name": "Bastille - Biscornet",
                "capacity": 62
            }
        },
        {
            "type": "Feature",
            "geometry": {
                "type": "Point",
                "coordinates": [
                    2.3017993569374,
                    48.852060203583
                ]
            },
            "properties": {
                "stationcode": null,
                "name": "Ecole Militaire - Place Joffre",
                "capacity": 26
            }
        },
        {
            "type": "Feature",
            "geometry": {
                "type": "Point",
                "coordinates": [
                    2.3896577954292,
                    48.838811048815
                ]
            },
            "properties": {
                "stationcode": null,
                "name": "Dugommier",
                "capacity": 53
            }
        },
        {
            "type": "Feature",
            "geometry": {
                "type": "Point",
                "coordinates": [
                    2.188277207315,
                    48.805160304345
                ]
            },
            "properties": {
                "stationcode": null,
                "name": "Gare de Chaville Rive Gauche",
                "capacity": 18
            }
        },
        {
            "type": "Feature",
            "geometry": {
                "type": "Point",
                "coordinates": [
                    2.2834496977978,
                    48.95756799268
                ]
            },
            "properties": {
                "stationcode": null,
                "name": "Yves Farges - Route d'Enghien",
                "capacity": 35
            }
        },
        {
            "type": "Feature",
            "geometry": {
                "type": "Point",
                "coordinates": [
                    2.3501381278038,
                    48.86181809267
                ]
            },
            "properties": {
                "stationcode": null,
                "name": "Sebastopol - Rambuteau",
                "capacity": 16
            }
        },
        {
            "type": "Feature",
            "geometry": {
                "type": "Point",
                "coordinates": [
                    2.315508019010038,
                    48.875448033960744
                ]
            },
            "properties": {
                "stationcode": null,
                "name": "Messine - Place Du P\u00e9rou",
                "capacity": 12
            }
        },
        {
            "type": "Feature",
            "geometry": {
                "type": "Point",
                "coordinates": [
                    2.3481646925210953,
                    48.830981659316855
                ]
            },
            "properties": {
                "stationcode": null,
                "name": "Croulebarde - Corvisart",
                "capacity": 34
            }
        },
        {
            "type": "Feature",
            "geometry": {
                "type": "Point",
                "coordinates": [
                    2.3034455627202988,
                    48.879406604954
                ]
            },
            "properties": {
                "stationcode": null,
                "name": "Chazelles - Courcelles",
                "capacity": 35
            }
        },
        {
            "type": "Feature",
            "geometry": {
                "type": "Point",
                "coordinates": [
                    2.329423,
                    48.87219
                ]
            },
            "properties": {
                "stationcode": null,
                "name": "Boudreau - Auber",
                "capacity": 28
            }
        },
        {
            "type": "Feature",
            "geometry": {
                "type": "Point",
                "coordinates": [
                    2.479562651149885,
                    48.83649602312711
                ]
            },
            "properties": {
                "stationcode": null,
                "name": "Charles de Gaulle - Beaut\u00e9",
                "capacity": 49
            }
        },
        {
            "type": "Feature",
            "geometry": {
                "type": "Point",
                "coordinates": [
                    2.322616316378116,
                    48.87590240712654
                ]
            },
            "properties": {
                "stationcode": null,
                "name": "Rocher - Laborde",
                "capacity": 65
            }
        },
        {
            "type": "Feature",
            "geometry": {
                "type": "Point",
                "coordinates": [
                    2.3723508417606,
                    48.781383825117
                ]
            },
            "properties": {
                "stationcode": null,
                "name": "Edouard Tremblay - Julian Grimaux",
                "capacity": 30
            }
        },
        {
            "type": "Feature",
            "geometry": {
                "type": "Point",
                "coordinates": [
                    2.3026576638221745,
                    48.821475594736775
                ]
            },
            "properties": {
                "stationcode": null,
                "name": "Jean Jaur\u00e8s - Salvador Allende",
                "capacity": 43
            }
        },
        {
            "type": "Feature",
            "geometry": {
                "type": "Point",
                "coordinates": [
                    2.2809894804846,
                    48.816939911292
                ]
            },
            "properties": {
                "stationcode": null,
                "name": "Larmeroux - Baudelaire",
                "capacity": 29
            }
        },
        {
            "type": "Feature",
            "geometry": {
                "type": "Point",
                "coordinates": [
                    2.3410347104072575,
                    48.814280450380224
                ]
            },
            "properties": {
                "stationcode": null,
                "name": "Gare RER de Gentilly",
                "capacity": 30
            }
        },
        {
            "type": "Feature",
            "geometry": {
                "type": "Point",
                "coordinates": [
                    2.3293386027216907,
                    48.83446472680611
                ]
            },
            "properties": {
                "stationcode": null,
                "name": "Boulard - Daguerre",
                "capacity": 45
            }
        },
        {
            "type": "Feature",
            "geometry": {
                "type": "Point",
                "coordinates": [
                    2.3828620836139,
                    48.85337548426
                ]
            },
            "properties": {
                "stationcode": null,
                "name": "Jean Mac\u00e9 - Faidherbe",
                "capacity": 63
            }
        },
        {
            "type": "Feature",
            "geometry": {
                "type": "Point",
                "coordinates": [
                    2.3613611608743668,
                    48.886674849730184
                ]
            },
            "properties": {
                "stationcode": null,
                "name": "Departement - Pajol",
                "capacity": 19
            }
        },
        {
            "type": "Feature",
            "geometry": {
                "type": "Point",
                "coordinates": [
                    2.3698963836667,
                    48.871379874257
                ]
            },
            "properties": {
                "stationcode": null,
                "name": "Parmentier - H\u00f4pital Saint-Louis",
                "capacity": 43
            }
        },
        {
            "type": "Feature",
            "geometry": {
                "type": "Point",
                "coordinates": [
                    2.2775253653526,
                    48.893479576183
                ]
            },
            "properties": {
                "stationcode": null,
                "name": "Paul Vaillant Couturier - Chaptal",
                "capacity": 39
            }
        },
        {
            "type": "Feature",
            "geometry": {
                "type": "Point",
                "coordinates": [
                    2.3025691509247,
                    48.84756654526
                ]
            },
            "properties": {
                "stationcode": null,
                "name": "Square Cambronne",
                "capacity": 59
            }
        },
        {
            "type": "Feature",
            "geometry": {
                "type": "Point",
                "coordinates": [
                    2.3319716067039,
                    48.813240124373
                ]
            },
            "properties": {
                "stationcode": null,
                "name": "Vladimir Ilitch L\u00e9nine - Andr\u00e9e Chedid",
                "capacity": 31
            }
        },
        {
            "type": "Feature",
            "geometry": {
                "type": "Point",
                "coordinates": [
                    2.3256602883339,
                    48.855628721101
                ]
            },
            "properties": {
                "stationcode": null,
                "name": "Raspail - Bac",
                "capacity": 52
            }
        },
        {
            "type": "Feature",
            "geometry": {
                "type": "Point",
                "coordinates": [
                    2.3689296841621403,
                    48.8862524447104
                ]
            },
            "properties": {
                "stationcode": null,
                "name": "Tanger - Place du Maroc",
                "capacity": 19
            }
        },
        {
            "type": "Feature",
            "geometry": {
                "type": "Point",
                "coordinates": [
                    2.436049282550812,
                    48.85493692155721
                ]
            },
            "properties": {
                "stationcode": null,
                "name": "Vincennes - Douy-Delcupe",
                "capacity": 38
            }
        },
        {
            "type": "Feature",
            "geometry": {
                "type": "Point",
                "coordinates": [
                    2.26848387135299,
                    48.84749841771691
                ]
            },
            "properties": {
                "stationcode": null,
                "name": "Eglise d'Auteuil",
                "capacity": 21
            }
        },
        {
            "type": "Feature",
            "geometry": {
                "type": "Point",
                "coordinates": [
                    2.40932246879487,
                    48.8691543609174
                ]
            },
            "properties": {
                "stationcode": null,
                "name": "Porte de M\u00e9nilmontant",
                "capacity": 15
            }
        },
        {
            "type": "Feature",
            "geometry": {
                "type": "Point",
                "coordinates": [
                    2.332976511564311,
                    48.87428447542072
                ]
            },
            "properties": {
                "stationcode": null,
                "name": "Provence - Chauss\u00e9e d'Antin",
                "capacity": 25
            }
        },
        {
            "type": "Feature",
            "geometry": {
                "type": "Point",
                "coordinates": [
                    2.4224362157778994,
                    48.81488859822486
                ]
            },
            "properties": {
                "stationcode": null,
                "name": "Ecole V\u00e9t\u00e9rinaire",
                "capacity": 36
            }
        },
        {
            "type": "Feature",
            "geometry": {
                "type": "Point",
                "coordinates": [
                    2.277785539627075,
                    48.85132886434057
                ]
            },
            "properties": {
                "stationcode": null,
                "name": "Maison de Radio - France",
                "capacity": 47
            }
        },
        {
            "type": "Feature",
            "geometry": {
                "type": "Point",
                "coordinates": [
                    2.31951002690117,
                    48.8418071798797
                ]
            },
            "properties": {
                "stationcode": null,
                "name": "Gare Montparnasse - Vaugirard",
                "capacity": 66
            }
        },